[
    {
        "name": "Le Rousseau",
        "experience": "Assez confortable",
        "location": {
            "street": "3 rue Jean-Jacques-Rousseau",
            "city": " Grenoble",
            "zipcode": " 38000",
            "country": " France"
        }
    },
    {
        "name": "Les 3 Faisans",
        "experience": "ó                                     Confortable",
        "location": {
            "street": "330 rue des Auberges",
            "city": " Saint-Savin",
            "zipcode": " 38300",
            "country": " France"
        }
    },
    {
        "name": "La Table du Sommelier",
        "experience": "Assez confortable",
        "location": {
            "street": "20 rue Porta",
            "city": " Albi",
            "zipcode": " 81000",
            "country": " France"
        }
    },
    {
        "name": "Au Bouchon Breton",
        "experience": "Assez confortable",
        "location": {
            "street": "20 rue du Maréchal-Leclerc",
            "city": " Dinard",
            "zipcode": " 35800",
            "country": " France"
        }
    },
    {
        "name": "Les Jardins du Léman",
        "experience": "ó                                     Confortable",
        "location": {
            "street": "Grande-Rue",
            "city": " Yvoire",
            "zipcode": " 74140",
            "country": " France"
        }
    },
    {
        "name": "La Maison de Marie",
        "experience": "ó                                     Confortable",
        "location": {
            "street": "24 rue Gabriel-Vicaire",
            "city": " Perros-Guirec",
            "zipcode": " 22700",
            "country": " France"
        }
    },
    {
        "name": "Auberge de la Clue",
        "experience": "Assez confortable",
        "location": {
            "street": "place de l'Église",
            "city": " Plaisians",
            "zipcode": " 26170",
            "country": " France"
        }
    },
    {
        "name": "La Récré",
        "experience": "Assez confortable",
        "location": {
            "street": "70 route de Satillieu",
            "city": " Vaudevant",
            "zipcode": " 07410",
            "country": " France"
        }
    },
    {
        "name": "Le Cèpe",
        "experience": "Assez confortable. Nos établissements de charme.",
        "location": {
            "street": "Immeuble Les Merisiers",
            "city": " Méribel",
            "zipcode": " 73550",
            "country": " France"
        }
    },
    {
        "name": "Athome",
        "experience": "Assez confortable",
        "location": {
            "street": "16 rue de la Sienne",
            "city": " Heugueville-sur-Sienne",
            "zipcode": " 50200",
            "country": " France"
        }
    },
    {
        "name": "So",
        "experience": "Assez confortable",
        "location": {
            "street": "15 rue  Amiral-Roussin",
            "city": " Dijon",
            "zipcode": " 21000",
            "country": " France"
        }
    },
    {
        "name": "La Table du Pouyaud",
        "experience": "ó                                     Confortable",
        "location": {
            "street": "57 route de Paris",
            "city": " Champcevinel",
            "zipcode": " 24750",
            "country": " France"
        }
    },
    {
        "name": "Le Jardin Les Crayères",
        "experience": "Assez confortable. Nos établissements de charme.",
        "location": {
            "street": "7 avenue du Général-Giraud",
            "city": " Reims",
            "zipcode": " 51100",
            "country": " France"
        }
    },
    {
        "name": "Auberge de la Brenne",
        "experience": "ó                                     Confortable",
        "location": {
            "street": "19 rue de la République",
            "city": " Neuillé-le-Lierre",
            "zipcode": " 37380",
            "country": " France"
        }
    },
    {
        "name": "Pierre & Jean",
        "experience": "Assez confortable. Nos établissements de charme.",
        "location": {
            "street": "2 rue de la Poste",
            "city": " Chagny",
            "zipcode": " 71150",
            "country": " France"
        }
    },
    {
        "name": "Racines by Daniel Gallacher",
        "experience": "Assez confortable",
        "location": {
            "street": "59 rue Georges-Bonnac",
            "city": " Bordeaux",
            "zipcode": " 33000",
            "country": " France"
        }
    },
    {
        "name": "Les Millésimes",
        "experience": "Assez confortable. Nos établissements de charme.",
        "location": {
            "street": "14 place de l'Hôtel-de-Ville",
            "city": " Noyers",
            "zipcode": " 89310",
            "country": " France"
        }
    },
    {
        "name": "La Baie d'Halong",
        "experience": "Assez confortable. Nos établissements de charme.",
        "location": {
            "street": "49 rue de la Madeleine",
            "city": " Beauvais",
            "zipcode": " 60000",
            "country": " France"
        }
    },
    {
        "name": "Auberge de la Baraque",
        "experience": "ó                                     Confortable",
        "location": {
            "street": "2 route de Bordeaux",
            "city": " Orcines",
            "zipcode": " 63870",
            "country": " France"
        }
    },
    {
        "name": "Richer",
        "experience": "Assez confortable",
        "location": {
            "street": "2 rue Richer",
            "city": " Paris",
            "zipcode": " 75009",
            "country": " France"
        }
    },
    {
        "name": "La Table d'Arthur R",
        "experience": "Assez confortable",
        "location": {
            "street": "9 rue Pierre Bérégovoy",
            "city": " Charleville-Mézières",
            "zipcode": " 08000",
            "country": " France"
        }
    },
    {
        "name": "Les Jardins de l'Acropolis",
        "experience": "ó                                     Confortable",
        "location": {
            "street": "rue d'Athènes",
            "city": " à Bourran",
            "zipcode": " Rodez",
            "country": " 12000"
        }
    },
    {
        "name": "Lougolin",
        "experience": "Assez confortable",
        "location": {
            "street": "381 route de Plascassier",
            "city": " Grasse",
            "zipcode": " 06130",
            "country": " France"
        }
    },
    {
        "name": "L'Oxygène",
        "experience": "ó                                     Confortable",
        "location": {
            "street": "La Charmette",
            "city": " Valmorel",
            "zipcode": " 73260",
            "country": " France"
        }
    },
    {
        "name": "SOlange",
        "experience": "Assez confortable",
        "location": {
            "street": "59 rue d'Isly",
            "city": " Lille",
            "zipcode": " 59000",
            "country": " France"
        }
    },
    {
        "name": "Le Beauvoir",
        "experience": "ô                                     Très confortable",
        "location": {
            "street": "1 avenue Marx-Dormoy",
            "city": " Bourges",
            "zipcode": " 18000",
            "country": " France"
        }
    },
    {
        "name": "B2K6",
        "experience": "Assez confortable",
        "location": {
            "street": "6 rue du Caire",
            "city": " Lempdes",
            "zipcode": " 63370",
            "country": " France"
        }
    },
    {
        "name": "L'Ormeau",
        "experience": "ó                                     Confortable",
        "location": {
            "street": "4 quai Thomas",
            "city": " Cancale",
            "zipcode": " 35260",
            "country": " France"
        }
    },
    {
        "name": "Téjérina-Hôtel de la Place",
        "experience": "ó                                     Confortable",
        "location": {
            "street": "51 Place de la Mairie",
            "city": " Polliat",
            "zipcode": " 01310",
            "country": " France"
        }
    },
    {
        "name": "Aux Plumes",
        "experience": "Assez confortable",
        "location": {
            "street": "45 rue Boulard",
            "city": " Paris",
            "zipcode": " 75014",
            "country": " France"
        }
    },
    {
        "name": "DZ'envies",
        "experience": "Assez confortable",
        "location": {
            "street": "12 rue Odebert",
            "city": " Dijon",
            "zipcode": " 21000",
            "country": " France"
        }
    },
    {
        "name": "Le 11 Bistrot Gourmand",
        "experience": "Assez confortable",
        "location": {
            "street": "11 rue de Verdun",
            "city": " Pontchâteau",
            "zipcode": " 44160",
            "country": " France"
        }
    },
    {
        "name": "Le Petit Paris",
        "experience": "ó                                     Confortable",
        "location": {
            "street": "au bourg",
            "city": " Daglan",
            "zipcode": " 24250",
            "country": " France"
        }
    },
    {
        "name": "Le Bistro des Glycines",
        "experience": "Assez confortable",
        "location": {
            "street": "4 avenue de Laugerie",
            "city": " Les Eyzies-de-Tayac",
            "zipcode": " 24620",
            "country": " France"
        }
    },
    {
        "name": "La Table 101",
        "experience": "Assez confortable",
        "location": {
            "street": "101 rue Moncey",
            "city": " Lyon",
            "zipcode": " 69003",
            "country": " France"
        }
    },
    {
        "name": "L'Îlot Vert",
        "experience": "Assez confortable",
        "location": {
            "street": "34-36 rue de Lille",
            "city": " Boulogne-sur-Mer",
            "zipcode": " 62200",
            "country": " France"
        }
    },
    {
        "name": "Côté Toqués",
        "experience": "Assez confortable",
        "location": {
            "street": "21 rue Hoche",
            "city": " Néris-les-Bains",
            "zipcode": " 03310",
            "country": " France"
        }
    },
    {
        "name": "Côté Mer",
        "experience": "ó                                     Confortable. Nos établissements de charme.",
        "location": {
            "street": "4 rue Ernest-Lamort",
            "city": " Cancale",
            "zipcode": " 35260",
            "country": " France"
        }
    },
    {
        "name": "L'Auberge du Pont des Pierres",
        "experience": "Assez confortable",
        "location": {
            "street": "754 rue Paul-de-Vanssay",
            "city": " Montanges",
            "zipcode": " 01200",
            "country": " France"
        }
    },
    {
        "name": "Briket' Bistrot",
        "experience": "Assez confortable",
        "location": {
            "street": "rue de L'Église",
            "city": " Guéthary",
            "zipcode": " 64210",
            "country": " France"
        }
    },
    {
        "name": "Le Rousseau",
        "experience": "Assez confortable",
        "location": {
            "street": "3 rue Jean-Jacques-Rousseau",
            "city": " Grenoble",
            "zipcode": " 38000",
            "country": " France"
        }
    },
    {
        "name": "Les 3 Faisans",
        "experience": "ó                                     Confortable",
        "location": {
            "street": "330 rue des Auberges",
            "city": " Saint-Savin",
            "zipcode": " 38300",
            "country": " France"
        }
    },
    {
        "name": "La Table du Sommelier",
        "experience": "Assez confortable",
        "location": {
            "street": "20 rue Porta",
            "city": " Albi",
            "zipcode": " 81000",
            "country": " France"
        }
    },
    {
        "name": "Au Bouchon Breton",
        "experience": "Assez confortable",
        "location": {
            "street": "20 rue du Maréchal-Leclerc",
            "city": " Dinard",
            "zipcode": " 35800",
            "country": " France"
        }
    },
    {
        "name": "Les Jardins du Léman",
        "experience": "ó                                     Confortable",
        "location": {
            "street": "Grande-Rue",
            "city": " Yvoire",
            "zipcode": " 74140",
            "country": " France"
        }
    },
    {
        "name": "La Maison de Marie",
        "experience": "ó                                     Confortable",
        "location": {
            "street": "24 rue Gabriel-Vicaire",
            "city": " Perros-Guirec",
            "zipcode": " 22700",
            "country": " France"
        }
    },
    {
        "name": "Auberge de la Clue",
        "experience": "Assez confortable",
        "location": {
            "street": "place de l'Église",
            "city": " Plaisians",
            "zipcode": " 26170",
            "country": " France"
        }
    },
    {
        "name": "La Récré",
        "experience": "Assez confortable",
        "location": {
            "street": "70 route de Satillieu",
            "city": " Vaudevant",
            "zipcode": " 07410",
            "country": " France"
        }
    },
    {
        "name": "Le Cèpe",
        "experience": "Assez confortable. Nos établissements de charme.",
        "location": {
            "street": "Immeuble Les Merisiers",
            "city": " Méribel",
            "zipcode": " 73550",
            "country": " France"
        }
    },
    {
        "name": "Athome",
        "experience": "Assez confortable",
        "location": {
            "street": "16 rue de la Sienne",
            "city": " Heugueville-sur-Sienne",
            "zipcode": " 50200",
            "country": " France"
        }
    },
    {
        "name": "So",
        "experience": "Assez confortable",
        "location": {
            "street": "15 rue  Amiral-Roussin",
            "city": " Dijon",
            "zipcode": " 21000",
            "country": " France"
        }
    },
    {
        "name": "La Table du Pouyaud",
        "experience": "ó                                     Confortable",
        "location": {
            "street": "57 route de Paris",
            "city": " Champcevinel",
            "zipcode": " 24750",
            "country": " France"
        }
    },
    {
        "name": "Le Jardin Les Crayères",
        "experience": "Assez confortable. Nos établissements de charme.",
        "location": {
            "street": "7 avenue du Général-Giraud",
            "city": " Reims",
            "zipcode": " 51100",
            "country": " France"
        }
    },
    {
        "name": "Auberge de la Brenne",
        "experience": "ó                                     Confortable",
        "location": {
            "street": "19 rue de la République",
            "city": " Neuillé-le-Lierre",
            "zipcode": " 37380",
            "country": " France"
        }
    },
    {
        "name": "Pierre & Jean",
        "experience": "Assez confortable. Nos établissements de charme.",
        "location": {
            "street": "2 rue de la Poste",
            "city": " Chagny",
            "zipcode": " 71150",
            "country": " France"
        }
    },
    {
        "name": "Racines by Daniel Gallacher",
        "experience": "Assez confortable",
        "location": {
            "street": "59 rue Georges-Bonnac",
            "city": " Bordeaux",
            "zipcode": " 33000",
            "country": " France"
        }
    },
    {
        "name": "Les Millésimes",
        "experience": "Assez confortable. Nos établissements de charme.",
        "location": {
            "street": "14 place de l'Hôtel-de-Ville",
            "city": " Noyers",
            "zipcode": " 89310",
            "country": " France"
        }
    },
    {
        "name": "La Baie d'Halong",
        "experience": "Assez confortable. Nos établissements de charme.",
        "location": {
            "street": "49 rue de la Madeleine",
            "city": " Beauvais",
            "zipcode": " 60000",
            "country": " France"
        }
    },
    {
        "name": "Auberge de la Baraque",
        "experience": "ó                                     Confortable",
        "location": {
            "street": "2 route de Bordeaux",
            "city": " Orcines",
            "zipcode": " 63870",
            "country": " France"
        }
    },
    {
        "name": "Richer",
        "experience": "Assez confortable",
        "location": {
            "street": "2 rue Richer",
            "city": " Paris",
            "zipcode": " 75009",
            "country": " France"
        }
    },
    {
        "name": "La Table d'Arthur R",
        "experience": "Assez confortable",
        "location": {
            "street": "9 rue Pierre Bérégovoy",
            "city": " Charleville-Mézières",
            "zipcode": " 08000",
            "country": " France"
        }
    },
    {
        "name": "Les Jardins de l'Acropolis",
        "experience": "ó                                     Confortable",
        "location": {
            "street": "rue d'Athènes",
            "city": " à Bourran",
            "zipcode": " Rodez",
            "country": " 12000"
        }
    },
    {
        "name": "Lougolin",
        "experience": "Assez confortable",
        "location": {
            "street": "381 route de Plascassier",
            "city": " Grasse",
            "zipcode": " 06130",
            "country": " France"
        }
    },
    {
        "name": "L'Oxygène",
        "experience": "ó                                     Confortable",
        "location": {
            "street": "La Charmette",
            "city": " Valmorel",
            "zipcode": " 73260",
            "country": " France"
        }
    },
    {
        "name": "SOlange",
        "experience": "Assez confortable",
        "location": {
            "street": "59 rue d'Isly",
            "city": " Lille",
            "zipcode": " 59000",
            "country": " France"
        }
    },
    {
        "name": "Le Beauvoir",
        "experience": "ô                                     Très confortable",
        "location": {
            "street": "1 avenue Marx-Dormoy",
            "city": " Bourges",
            "zipcode": " 18000",
            "country": " France"
        }
    },
    {
        "name": "B2K6",
        "experience": "Assez confortable",
        "location": {
            "street": "6 rue du Caire",
            "city": " Lempdes",
            "zipcode": " 63370",
            "country": " France"
        }
    },
    {
        "name": "L'Ormeau",
        "experience": "ó                                     Confortable",
        "location": {
            "street": "4 quai Thomas",
            "city": " Cancale",
            "zipcode": " 35260",
            "country": " France"
        }
    },
    {
        "name": "Téjérina-Hôtel de la Place",
        "experience": "ó                                     Confortable",
        "location": {
            "street": "51 Place de la Mairie",
            "city": " Polliat",
            "zipcode": " 01310",
            "country": " France"
        }
    },
    {
        "name": "Aux Plumes",
        "experience": "Assez confortable",
        "location": {
            "street": "45 rue Boulard",
            "city": " Paris",
            "zipcode": " 75014",
            "country": " France"
        }
    },
    {
        "name": "DZ'envies",
        "experience": "Assez confortable",
        "location": {
            "street": "12 rue Odebert",
            "city": " Dijon",
            "zipcode": " 21000",
            "country": " France"
        }
    },
    {
        "name": "Le 11 Bistrot Gourmand",
        "experience": "Assez confortable",
        "location": {
            "street": "11 rue de Verdun",
            "city": " Pontchâteau",
            "zipcode": " 44160",
            "country": " France"
        }
    },
    {
        "name": "Le Petit Paris",
        "experience": "ó                                     Confortable",
        "location": {
            "street": "au bourg",
            "city": " Daglan",
            "zipcode": " 24250",
            "country": " France"
        }
    },
    {
        "name": "Le Bistro des Glycines",
        "experience": "Assez confortable",
        "location": {
            "street": "4 avenue de Laugerie",
            "city": " Les Eyzies-de-Tayac",
            "zipcode": " 24620",
            "country": " France"
        }
    },
    {
        "name": "La Table 101",
        "experience": "Assez confortable",
        "location": {
            "street": "101 rue Moncey",
            "city": " Lyon",
            "zipcode": " 69003",
            "country": " France"
        }
    },
    {
        "name": "L'Îlot Vert",
        "experience": "Assez confortable",
        "location": {
            "street": "34-36 rue de Lille",
            "city": " Boulogne-sur-Mer",
            "zipcode": " 62200",
            "country": " France"
        }
    },
    {
        "name": "Côté Toqués",
        "experience": "Assez confortable",
        "location": {
            "street": "21 rue Hoche",
            "city": " Néris-les-Bains",
            "zipcode": " 03310",
            "country": " France"
        }
    },
    {
        "name": "Côté Mer",
        "experience": "ó                                     Confortable. Nos établissements de charme.",
        "location": {
            "street": "4 rue Ernest-Lamort",
            "city": " Cancale",
            "zipcode": " 35260",
            "country": " France"
        }
    },
    {
        "name": "L'Auberge du Pont des Pierres",
        "experience": "Assez confortable",
        "location": {
            "street": "754 rue Paul-de-Vanssay",
            "city": " Montanges",
            "zipcode": " 01200",
            "country": " France"
        }
    },
    {
        "name": "Briket' Bistrot",
        "experience": "Assez confortable",
        "location": {
            "street": "rue de L'Église",
            "city": " Guéthary",
            "zipcode": " 64210",
            "country": " France"
        }
    },
    {
        "name": "Minami",
        "experience": "Assez confortable",
        "location": {
            "street": "19 faubourg Sainte-Claire",
            "city": " Annecy",
            "zipcode": " 74000",
            "country": " France"
        }
    },
    {
        "name": "Le Manoir du Sphinx",
        "experience": "ó                                     Confortable. Nos établissements de charme.",
        "location": {
            "street": "67 chemin de la Messe",
            "city": " Perros-Guirec",
            "zipcode": " 22700",
            "country": " France"
        }
    },
    {
        "name": "Chez John",
        "experience": "Assez confortable",
        "location": {
            "street": "465 route de Gaillac",
            "city": " Ambres",
            "zipcode": " 81500",
            "country": " France"
        }
    },
    {
        "name": "La Verdoyante",
        "experience": "ó                                     Confortable",
        "location": {
            "street": "866 chemin vicinal Coste Brigade",
            "city": " Gassin",
            "zipcode": " 83580",
            "country": " France"
        }
    },
    {
        "name": "Etsi",
        "experience": "Assez confortable",
        "location": {
            "street": "23 rue Eugène-Carrière",
            "city": " Paris",
            "zipcode": " 75018",
            "country": " France"
        }
    },
    {
        "name": "Bellavista",
        "experience": "ó                                     Confortable",
        "location": {
            "street": "place du Foiral",
            "city": " Prats-de-Mollo-la-Preste",
            "zipcode": " 66230",
            "country": " France"
        }
    },
    {
        "name": "Racine",
        "experience": "Assez confortable",
        "location": {
            "street": "1 rue du Chapeau-Rouge",
            "city": " impasse Charavay",
            "zipcode": " Lyon",
            "country": " 69009"
        }
    },
    {
        "name": "Julien",
        "experience": "ó                                     Confortable",
        "location": {
            "street": "Route de Strasbourg",
            "city": " Fouday",
            "zipcode": " 67130",
            "country": " France"
        }
    },
    {
        "name": "Madame Jeanne",
        "experience": "Assez confortable",
        "location": {
            "street": "84 rue de Grignan",
            "city": " Marseille",
            "zipcode": " 13001",
            "country": " France"
        }
    },
    {
        "name": "La Vieille Forge",
        "experience": "ó                                     Confortable",
        "location": {
            "street": "1 rue des Écoles",
            "city": " Kaysersberg",
            "zipcode": " 68240",
            "country": " France"
        }
    },
    {
        "name": "Le Bellevue",
        "experience": "ó                                     Confortable",
        "location": {
            "street": "1 avenue des Pyrénées",
            "city": " Lacroix-Falgarde",
            "zipcode": " 31120",
            "country": " France"
        }
    },
    {
        "name": "Le Chalet",
        "experience": "ó                                     Confortable",
        "location": {
            "street": "4 avenue Durandeau",
            "city": " Ax-les-Thermes",
            "zipcode": " 09110",
            "country": " France"
        }
    },
    {
        "name": "Le Rendez-vous des Gourmets",
        "experience": "Assez confortable",
        "location": {
            "street": "20 rue Roger-Brun",
            "city": " Bracieux",
            "zipcode": " 41250",
            "country": " France"
        }
    },
    {
        "name": "Campagne, Vignes et Gourmandises",
        "experience": "Assez confortable. Nos établissements de charme.",
        "location": {
            "street": "629 chemin des Terres",
            "city": " Sainte-Cécile-les-Vignes",
            "zipcode": " 84290",
            "country": " France"
        }
    },
    {
        "name": "La Maison de Kerdiès",
        "experience": "ó                                     Confortable",
        "location": {
            "street": "5 route de Perherel",
            "city": " lieu-dit St-Samson",
            "zipcode": " Plougasnou",
            "country": " 29630"
        }
    },
    {
        "name": "L'Antre Amis",
        "experience": "Assez confortable",
        "location": {
            "street": "9 rue Bouchut",
            "city": " Paris",
            "zipcode": " 75015",
            "country": " France"
        }
    },
    {
        "name": "Le Bistro Chapouton",
        "experience": "Assez confortable",
        "location": {
            "street": "200 route de Montélimar",
            "city": " Grignan",
            "zipcode": " 26230",
            "country": " France"
        }
    },
    {
        "name": "Les 7",
        "experience": "Assez confortable",
        "location": {
            "street": "32 quai Baluze",
            "city": " Tulle",
            "zipcode": " 19000",
            "country": " France"
        }
    },
    {
        "name": "La Botte d'Asperges",
        "experience": "Assez confortable",
        "location": {
            "street": "15 Rue Pierre-Henri Mauger",
            "city": " Contres",
            "zipcode": " 41700",
            "country": " France"
        }
    },
    {
        "name": "Cokotte",
        "experience": "ó                                     Confortable",
        "location": {
            "street": "6 rue Trois-Notre-Dame",
            "city": " Angoulême",
            "zipcode": " 16000",
            "country": " France"
        }
    },
    {
        "name": "La Grillade Gourmande",
        "experience": "ó                                     Confortable",
        "location": {
            "street": "16 rue de Reims",
            "city": " Épernay",
            "zipcode": " 51200",
            "country": " France"
        }
    },
    {
        "name": "La Bonne Auberge",
        "experience": "ó                                     Confortable",
        "location": {
            "street": "63 Route Nationale",
            "city": " Dury",
            "zipcode": " 80480",
            "country": " France"
        }
    },
    {
        "name": "Le Confidentiel",
        "experience": "Assez confortable",
        "location": {
            "street": "24 route des Moulins",
            "city": " Menthon-Saint-Bernard",
            "zipcode": " 74290",
            "country": " France"
        }
    },
    {
        "name": "Le Petit Verdot du 17ème",
        "experience": "Assez confortable",
        "location": {
            "street": "9 rue Fourcroy",
            "city": " Paris",
            "zipcode": " 75017",
            "country": " France"
        }
    },
    {
        "name": "L'AO - L'Aigle d'Or",
        "experience": "Assez confortable",
        "location": {
            "street": "5 rue Principale",
            "city": " Rimbach-près-Guebwiller",
            "zipcode": " 68500",
            "country": " France"
        }
    }
]